ID,cntry,state,locality,lat,lon,crdsprov.est,age,period,min_ma,max_ma
1,AUT,,Skelton-MacKay,-77.78333000,160.46670000,prov,MD,GIV,387.7,372.2
2,AUS,VIC,Tatong,-36.75000000,146.06670000,est,MD,GIV,384.3666667,379.2
3,AUS,WA,Gogo,-18.30000000,126.50000000,prov,MD,GIV,386.0333333,379.2
4,AUS,VIC,Hills locality,-37.37668400,145.99747800,est,ED,EMS,402.8333333,393.3
5,AUS,VIC,Bindaree Road,-37.19686100,146.63053100,est,LD,FRAS,382.7,379.2
6,AUS,NSW,Forbes,-33.58864005,148.56917619,est,LD,FAM,372.2,367.7666667
7,AUS,NSW,Eden Pambula,-36.95610046,149.79107465,est,LD,FRAS,382.7,379.2
8,AUS,NSW,Wee Jasper,-35.08377000,148.63988700,est,ED,EMS,398.0666667,393.3
9,AUS,NSW,Grenfell,-33.75611000,148.32170000,est,LD,FAM,363.3333333,358.9
10,AUS,NSW,Eden Pambula,-36.95610046,149.79107465,est,MD,GIV,384.3666667,379.2
11,AUS,NSW,Canowindra (Kalang-Nyrang Creek),-33.56028000,148.53310000,est,LD,FAM,367.7666667,363.3333333
12,AUS,VIC,Taggerty,-37.40036721,145.75449402,est,LD,FRAS,382.7,379.2
13,AUS,VIC,Mansfield South Blue Range,-37.07720700,146.07259800,est,LD,FRAS,382.7,379.2
14,AUS,VIC,Freestone Creek,-37.85233198,147.08413103,est,LD,FRAS,382.7,379.2
15,AUS,VIC,Mt Howitt Spur,-37.17467173,146.64846091,est,MD,GIV,384.3666667,382.7
16,BLR,,Bobruysk,53.07644859,29.36111635,est,ED,EMS,398.0666667,393.3
17,BEL,,Hingeon,50.51166600,5.04039800,est,MD,GIV,387.7,372.2
18,BEL,,Modave,50.44037000,5.27953000,est,LD,FAM,363.3333333,358.9
19,BEL,,Becco,50.50263825,5.78832611,est,LD,FAM,363.3333333,358.9
20,BEL,,Strud,50.44082774,5.04417898,est,LD,FAM,363.3333,358.9000
21,BEL,,Lesse,50.06403600,5.14917700,est,,,,
22,BEL,,Bonne,50.45355300,5.28294900,est,,,,
23,BEL,,Dinant,50.27085500,4.91118900,est,LD,FAM,,
24,BEL,,Chevremont,50.59160000,5.64623600,est,LD,FAM,,
25,BEL,,Durnal,50.32876900,4.98420100,est,LD,FAM,,
26,BEL,,Spontin,50.32793000,5.00921000,est,LD,FAM,,
27,BOL,,Copacabana Section,-16.18018300,-69.05420400,est,MD,GIV,389.5667,382.7000
28,BOL,,La Paz,-17.34236500,-67.75827000,est,ED,LOCH,419.2000,416.4000
29,BOL,,Seripona-La Higuera,-18.79478457,-64.20065597,est,ED,LOCH,413.6000,410.8000
30,BOL,,Icla,-19.36271400,-64.79567800,est,,,,
31,BOL,,Altiplano,-19.87368300,-65.55167900,est,MD,GIV,389.5667,382.7000
32,BRA,,Campo Maior,-4.36363400,-39.19274200,est,LD,FAM,363.3333,358.9000
33,BRA,,Picos (Parnaiba Basin),-4.28363400,-42.99342000,est,MD,EIF,393.3000,372.2000
34,BRA,,Cachoeira da Porteira,-3.22656500,-60.93413500,est,ED,LOCH,427.4000,410.8000
35,BRA,,Tibagi,-24.53333000,-50.45000000,est,ED,EMS,398.0667,393.3000
36,BRA,,Maecuru River,-1.55554193,-54.37881062,est,MD,EIF,393.3000,389.5667
37,CAN,QC,Miguasha,48.10338000,-66.34885700,est,LD,FRAS,379.2000,375.7000
38,CAN,NU,Nunavut,77.16491700,-86.26928300,est,LD,FRAS,382.7000,372.2000
39,CAN,ON,Ridgemont Quarries,42.92443100,-79.00942000,est,SL,PRID,420.4667,419.2000
40,CAN,NB,Atholville ,47.99275100,-66.72882100,est,ED,EMS,407.6000,393.3000
41,CAN,NB,Dalhousie,48.05764500,-66.37083100,est,ED,LOCH,419.2000,410.8000
42,CAN,AL,Wapiti Mountain,51.72694814,-115.75667644,est,MD,GIV,384.3667,382.7000
43,CAN,NS,Arisaig-Pictou,45.75467661,-62.17506342,est,ED,EMS,407.6000,393.3000
44,CAN,NWT,Man on the Hill (MOTH),62.53616380,-127.75239066,est,ED,LOCH,419.2000,410.8000
45,CAN,ON,Kettle Point,43.17929946,-82.01825252,est,LD,FRAS,382.7000,358.9000
46,CAN,QC,Mont Lyall,48.78366160,-66.08268467,est,ED,EMS,407.6000,402.8333
47,CAN,QC,Mont Tuzo,48.78350878,-66.28282573,est,ED,EMS,407.6000,402.8333
48,CAN,QC,DAiguillon (Cap-au-Os),48.82701200,-64.31046100,est,ED,EMS,407.6000,391.4333
49,CAN,QC,Anse-a-Brillant,48.73144400,-64.30455000,est,ED,EMS,407.6000,393.3000
50,CHN,,Heyuanzhai,24.69436848,99.12827670,est,MD,GIV,,
51,CHN,,Mulatang,32.57629074,100.36922991,est,MD,EIF,,
52,CHN,,Changyang,29.88935773,111.53486144,est,LD,FRAS,382.7000,372.2000
53,CHN,,Longmenshan,32.03528000,105.14440000,est,LD,FRAS,382.7000,372.2000
54,CHN,,Cement Plant,20.01158346,110.21767450,est,MD,EIF,389.5667,387.7000
55,CHN,,Wuding,25.79307968,102.19911840,est,MD,EIF,393.3000,391.4333
56,CHN,,Qujing,25.58800000,103.80940000,est,MD,EIF,393.3000,391.4333
57,CHN,,Caojiaba,27.45959595,111.61929423,est,MD,EIF,391.4333,389.5667
58,CHN,,Longmenshan,32.03528000,105.14440000,est,MD,GIV,384.3667,382.7000
59,CHN,,Zhongning,37.33403000,105.26587000,est,LD,FAM,363.3333,358.9000
60,CHN,,Wufengshan,25.54167000,102.43250000,est,ED,EMS,398.0667,393.3000
61,CHN,,Qujing,25.48330000,103.78300000,est,SL,LUD,425.6000,419.2000
62,CHN,,Qujing,25.44982866,103.75338081,est,SL,LUD,427.4000,423.0000
63,CHN,,Qujing,25.48330000,103.78300000,est,SL,LUD,427.4000,423.0000
64,CHN,,Qujing,25.48330000,103.78300000,est,SL,PRID,423.0000,419.2000
65,CHN,,Xitun,25.49755000,103.77180000,est,ED,,,
66,CHN,,Dongpo,25.44030489,103.69530659,est,SL,,,
67,COL,,Floresta area,5.86033300,-72.94933000,est,LD,FRAS,382.7000,375.7000
68,DNK,,East Greenland,73.42223414,-23.28723508,est,LD,FAM,372.2000,367.7667
69,DNK,,East Greenland,73.42223414,-23.28723508,est,LD,FAM,372.2000,367.7667
70,DNK,,East Greenland,73.42223414,-23.28723508,est,LD,FRAS,382.7000,379.2000
71,DNK,,East Greenland,73.42223414,-23.28723508,est,MD,EIF,393.3000,387.7000
72,DNK,,East Greenland,73.42223414,-23.28723508,est,MD,EIF,393.3000,387.7000
73,DNK,,East Greenland,73.42223414,-23.28723508,est,LD,FAM,372.2000,358.9000
74,DNK,,East Greenland,73.42223414,-23.28723508,est,LD,FAM,372.2000,358.9000
75,DNK,,East Greenland,73.42223414,-23.28723508,est,LD,FAM,372.2000,358.9000
76,DNK,,East Greenland,73.42223414,-23.28723508,est,LD,FAM,372.2000,358.9000
77,DNK,,East Greenland,73.42223414,-23.28723508,est,MD,GIV,387.7000,382.7000
78,DNK,,East Greenland,73.42223414,-23.28723508,est,LD,FAM,363.3333,358.9000
79,DNK,,East Greenland,73.42223414,-23.28723508,est,LD,FAM,363.3333,358.9000
80,DNK,,East Greenland,73.42223414,-23.28723508,est,LD,FAM,363.3333,358.9000
81,GBR,,Portishead,51.48827982,-2.78083307,est,LD,FAM,372.2000,358.9000
82,EST,,Meeksi Mill outcrop,58.24394873,27.40492878,est,LD,FRAS,382.7000,379.2000
83,FRA,,Carriere la Parisienne,50.83276124,1.78781164,est,MD,GIV,387.7000,382.7000
84,FRA,,Carriere du Griset,50.82782003,1.74617515,est,LD,FRAS,379.2000,375.7000
85,DEU,,Bergisch-Gladbach,50.99188547,7.15007136,est,LD,FRAS,382.7000,379.2000
86,DEU,,Bad Wildungen,51.14193473,9.09454808,est,LD,FRAS,375.7000,372.2000
87,DEU,,Gerolstein,50.22029428,6.63004519,est,MD,GIV,384.3667,382.7000
88,DEU,,Bicken,50.69501100,8.38257970,est,LD,FRAS,379.2000,372.2000
89,IRN,,Ravar,31.24922585,56.78180435,est,LD,FRAS,382.7000,379.2000
90,IRN,,Charhriseh,32.99113261,52.08885819,est,LD,FRAS,382.7000,379.2000
91,IRN,,Kerman Region (20),30.22192645,56.99647516,est,LD,FRAS,382.7000,375.7000
92,IRN,,Chahriseh,30.50000000,56.50000000,est,LD,FAM,372.2000,358.9000
93,IRN,,Soh,33.43578364,51.45786917,est,MD,GIV,387.7000,382.7000
94,LVA,,Koknese Fre,56.64741949,25.44993723,est,LD,FRAS,382.7000,379.2000
95,LVA,,Pavari FA,56.69467564,22.16113602,est,LD,FAM,363.3333,358.9000
96,LVA,,Straupe,57.35501697,24.97067286,est,MD,GIV,384.3667,382.7000
97,LVA,,Pasta Muiza Fre,56.62674430,25.45696283,est,MD,GIV,384.3667,382.7000
98,LVA,,Lode,57.30000000,25.12000000,est,MD,,,
99,MNG,,Hushoot Shiveetiin gol section,45.27300000,91.05250000,est,LD,FAM,367.7667,363.3333
100,MAR,,Hamar Lagdad,31.38066584,-4.05767354,est,LD,FAM,372.2000,358.9000
101,MAR,,Oued Chebbi,31.25004759,-3.81925845,est,LD,FAM,372.2000,358.9000
102,MAR,,Madene,29.72733258,-8.96275875,est,LD,FAM,367.7667,363.3333
103,POL,,Holy Cross Mountains FRl,50.87334962,20.57250899,est,LD,FRAS,382.7000,372.2000
104,POL,,Zachelmie Quarry,50.96871097,20.69215776,est,MD,GIV,387.7000,382.7000
105,POL,,Bukowa Gora Holy Cross Mountains,50.97213866,20.80550870,est,ED,EMS,398.0667,393.3000
106,POL,,Grzegorzowice-Skaly Holy Cross Mountains,50.87148660,21.14270488,est,ED,EMS,398.0667,393.3000
107,POL,,Holy Cross Mountains FRm,50.87334962,20.57250899,est,LD,FRAS,379.2000,375.7000
108,RUS,,Piskovichi outcrops,57.84252317,28.25827917,est,LD,FRAS,382.7000,379.2000
109,RUS,,Snetnaya Gora outcrops,57.83577551,28.26076014,est,LD,FRAS,382.7000,379.2000
110,RUS,,Velikaya River Pskov Region,57.83577551,28.26076014,est,LD,FRAS,382.7000,379.2000
111,RUS,,Oryol Region,52.88790634,36.03417908,est,LD,FAM,372.2000,358.9000
112,RUS,,Andreyevka-2,54.12826099,36.55921660,est,LD,FAM,372.2000,358.9000
113,RUS,,Pskov FR,57.84252317,28.25827917,est,LD,FRAS,382.7000,372.2000
114,RUS,,Sjass FR,59.89087286,32.80161418,est,LD,FRAS,382.7000,372.2000
115,GBR,,Mill Rock,51.14336249,-4.25503338,est,LD,FAM,372.2000,367.7667
116,SCOT,,Whitemire FR,57.66227084,-2.97675953,est,LD,FRAS,382.7000,379.2000
117,SCOT,SCOT,Shiel Burn Monks Water,55.54625471,-3.93604962,est,SL,WEN,433.4000,431.4000
118,SCOT,SCOT,Dippal Burn,55.56706262,-4.06182404,est,SL,WEN,433.4000,431.4000
119,SCOT,SCOT,Scaat Craig,57.60830000,-3.28422000,est,LD,FRAS,375.7000,372.2000
120,SCOT,SCOT,Nairn GIFR,57.57770793,-3.86279140,est,MD,FRAS,387.7000,372.2000
121,SCOT,SCOT,Elgin GI,57.65558416,-3.35648748,est,MD,GIV,384.3667,382.7000
122,SCOT,SCOT,Holborn Head Quarry,58.61811108,-3.58658408,est,MD,GIV,384.3667,382.7000
123,SCOT,SCOT,Birk Knowes,55.62920840,-3.90118890,est,SL,LLA,436.8667,433.4000
124,SCOT,SCOT,Ree Burn Douglas Water,55.52148279,-3.96162322,est,SL,LLA,436.8667,433.4000
125,SCOT,SCOT,Dunside,55.61175088,-3.98857560,est,SL,LLA,436.8667,433.4000
126,SCOT,SCOT,Slot Burn (Segholm),55.55633809,-4.10956498,est,SL,PRID,423.0000,419.2000
127,ZAF,,Grootrivier,-33.37251356,24.35475223,est,MD,GIV,387.7000,382.7000
128,ZAF,,Warmwaterberg,-33.78457514,20.75354683,est,MD,GIV,387.7000,382.7000
129,ZAF,,Waterloo Farm,-27.66101417,30.43475138,est,LD,FAM,363.3333,358.9000
130,ZAF,,Cederberg,-32.85676960,19.44227010,est,MD,GIV,387.7000,382.7000
131,ZAF,,Rooiberg,-24.77081220,27.73298696,est,,,,
132,ESP,,Aragon,41.07164351,-1.01655277,est,MD,EIF,393.3000,387.7000
133,ESP,,Aragon,41.06828953,-1.07250794,est,ED,LOCH,419.2000,407.6000
134,ESP,,Aragon,41.12061322,-1.59887761,est,ED,LOCH,419.2000,407.6000
135,THA,,Mae Sam Lap,17.97500000,97.73917000,est,LD,FAM,363.3333,358.9000
136,THA,,Mae Sariang,18.35502086,97.73378037,est,SL,,,
137,THA,,Loei (new site),17.39500580,101.62460387,est,MD,,,
138,TUR,,Koprulu black shale,36.76151863,32.18052055,est,LD,FAM,372.2000,358.9000
139,TUR,,Armutgozlek Tepe,36.74720960,30.52523033,est,LD,FRAS,382.7000,372.2000
140,USA,AR,Red Hill,33.40323064,-110.89202187,est,LD,FRAS,382.7000,379.2000
141,USA,AR,Mt Elden,35.25581088,-111.60665808,est,LD,FRAS,382.7000,372.2000
142,USA,AR,Jerome localities,34.75819033,-112.11568422,est,LD,FRAS,375.7000,372.2000
143,USA,CO,Endlich Mesa,37.51443022,-107.59663996,est,LD,FAM,372.2000,358.9000
144,USA,CO,Parting,39.16608855,-106.38756177,est,LD,FAM,363.3333,358.9000
145,USA,CO,White River Plateau,39.75966842,-107.38084745,est,LD,FAM,363.3333,358.9000
146,USA,CO,Fremont,38.46890969,-106.16502302,est,LD,,,
147,USA,MI,Dundee limestone,,,,MD,EIF,393.3000,387.7000
148,USA,MI,Rockport Quarry,45.20323,-83.38494,est,MD,GIV,387.7000,382.7000
149,USA,NY,18 Mile Creek,42.71820,-78.96863,est,LD,FRAS,382.7000,379.2000
150,USA,NY,Cairo,42.30434,-74.00978,est,MD,GIV,384.3667,382.7000
151,USA,NY,Delaware Co,42.1898048170,-74.9159305522,est,LD,,,
152,USA,OH,Cleveland FA,39.40000,-83.60000,est,LD,FAM,372.2000,358.9000
153,USA,PN,Red Hill,40.36369,-75.47625,est,LD,FAM,363.3333,358.9000
154,USA,PN,Route 15 Tioga Co,41.7910896069,-77.1013740539,est,LD,FAM,363.3333,358.9000
155,USA,PN,Lycoming Co,41.4302861544,-76.9999954533,est,LD,FAM,363.3333,358.9000
156,USA,PN,Howard Falls,41.95584,-80.22871,est,LD,FAM,367.7667,363.3333
157,VEN,,Cano Colorado Sur,9.84870,-62.99930,est,LD,FRAS,384.3667,375.7000
158,VNM,,Dong Tho,17.6494513445,106.5112017023,est,MD,GIV,387.7000,379.2000
159,VNM,,My Duc,22.60972,105.66320,est,SL,WEN,433.4000,419.2000
160,VNM,,Cape Ly Hoa,17.6530064000,106.5166110000,est,ED,EMS,407.6000,393.3000
161,VNM,,Dong Van Trang Xa,17.65301,106.51661,est,ED,LOCH,413.6000,409.7333
162,VNM,,Zom Nha,17.7992072232,105.9684719997,est,LD,FAM,372.2000,367.7667
163,VNM,,Song Hong,22.4999990226,105.2281474426,est,MD,GIV,387.7000,382.7000
164,VNM,,Lung Co-Mia Le,23.30876,105.3665858,est,SL,PRID,424.4667,421.7333
165,VNM,,Tong Vai,23.18333,105.1000000000,prov,ED,LOCH,416.4000,410.8000
166,VNM,,Mia Le,23.3000000000,105.3000000000,prov,ED,PRAG,410.8000,407.6000